[{"name":"Google","category_code":"search","total_money_raised":"$555M","latitude":-37.879234,"longitude":145.073608,"location":{"type":"Point","coordinates":[145.073608,-37.879234]},"old_young":"old"},{"name":"Hitwise","category_code":"web","total_money_raised":"$4.2M","latitude":-37.814251,"longitude":144.963169,"location":{"type":"Point","coordinates":[144.963169,-37.814251]},"old_young":"old"},{"name":"Direct Hit","category_code":"search","total_money_raised":"$26M","latitude":28.0854206,"longitude":-80.6475007,"location":{"type":"Point","coordinates":[-80.6475007,28.0854206]},"old_young":"old"},{"name":"Coremetrics","category_code":"advertising","total_money_raised":"$91M","latitude":-37.814541,"longitude":144.9705,"location":{"type":"Point","coordinates":[144.9705,-37.814541]},"old_young":"old"},{"name":"Aconex","category_code":"software","total_money_raised":"$85M","latitude":-37.8161164,"longitude":144.9715423,"location":{"type":"Point","coordinates":[144.9715423,-37.8161164]},"old_young":"old"},{"name":"Travel Distribution Systems","category_code":"enterprise","total_money_raised":"$1.1M","latitude":-37.819691,"longitude":145.205688,"location":{"type":"Point","coordinates":[145.205688,-37.819691]},"old_young":"old"},{"name":"Internet Marketing Academy Australia","category_code":"other","total_money_raised":"$100k","latitude":-37.839941,"longitude":144.976425,"location":{"type":"Point","coordinates":[144.976425,-37.839941]},"old_young":"young"}]